City_ID,City,Lat,Lng,Max Temp,Humidity,Cloudiness,Wind Speed,Country,Date
0,Araouane,18.9,-3.53,87.1,13,0,8.01,ML,1603667539
1,Leningradskiy,69.38,178.42,24.51,90,68,5.41,RU,1603667539
2,Kruisfontein,-34.0,24.73,61.0,96,100,1.01,ZA,1603667539
3,Hobart,-42.88,147.33,57.0,54,75,11.41,AU,1603667540
4,Bluff,-46.6,168.33,53.01,63,71,5.99,NZ,1603667370
5,Carballo,43.21,-8.69,48.2,87,90,14.99,ES,1603667540
6,Kargil,34.57,76.1,26.04,85,38,3.4,IN,1603667540
7,‘Āhuimanu,21.44,-157.84,84.99,74,40,9.17,US,1603667540
8,Upernavik,72.79,-56.15,13.8,76,64,4.9,GL,1603667540
9,Ponta do Sol,32.67,-17.1,66.2,68,20,6.93,PT,1603667269
10,Mataura,-46.19,168.86,53.01,63,94,5.99,NZ,1603667541
11,Mossamedes,-15.2,12.15,68.58,78,46,2.39,AO,1603667541
12,Arlit,18.74,7.39,78.13,17,0,10.16,NE,1603667541
13,East London,-33.02,27.91,66.38,70,96,2.3,ZA,1603667541
14,Baykit,61.67,96.37,14.14,93,81,2.1,RU,1603667481
15,Half Moon Bay,37.46,-122.43,69.8,59,20,6.93,US,1603667248
16,Kavaratti,10.57,72.64,81.39,75,88,4.52,IN,1603667541
17,Boa Vista,2.82,-60.67,91.4,46,0,5.82,BR,1603667541
18,Lerwick,60.15,-1.15,50.0,81,81,19.46,GB,1603667542
19,Vestmannaeyjar,63.44,-20.27,44.19,74,0,1.92,IS,1603667276
20,Bandarbeyla,9.49,50.81,75.18,78,1,10.4,SO,1603667542
21,West Lorne,42.6,-81.6,43.0,56,93,3.0,CA,1603667542
22,Kaitangata,-46.28,169.85,53.01,70,99,1.99,NZ,1603667542
23,Hasaki,35.73,140.83,51.8,87,75,3.36,JP,1603667542
24,Ushuaia,-54.8,-68.3,53.6,46,20,6.93,AR,1603667543
25,Tiarei,-17.53,-149.33,84.2,70,40,4.7,PF,1603667543
26,Avilés,43.55,-5.92,54.0,71,40,8.05,ES,1603667543
27,Cherskiy,68.75,161.3,15.31,96,100,0.36,RU,1603667543
28,Port Elizabeth,-33.92,25.57,62.6,93,75,9.17,ZA,1603667543
29,Bud,39.45,-86.18,51.01,61,90,3.36,US,1603667546
30,Rikitea,-23.12,-134.97,74.71,80,100,23.55,PF,1603667267
31,Bambous Virieux,-20.34,57.76,73.0,88,75,18.34,MU,1603667546
32,Nikolskoye,59.7,30.79,43.0,93,90,6.71,RU,1603667501
33,Tasiilaq,65.61,-37.64,32.0,97,99,12.75,GL,1603667547
34,Naze,28.37,129.48,71.6,77,75,4.7,JP,1603667287
35,Butaritari,3.07,172.79,81.27,71,57,9.33,KI,1603667547
36,La Ronge,55.1,-105.28,26.6,49,75,6.93,CA,1603667547
37,Umeå,63.83,20.26,48.2,100,100,16.11,SE,1603667547
38,New Norfolk,-42.78,147.06,57.0,54,2,1.01,AU,1603667432
39,Nuuk,64.18,-51.72,24.8,73,100,10.29,GL,1603667548
40,Khingansk,49.12,131.18,30.33,98,7,3.78,RU,1603667548
41,Alofi,-19.06,-169.92,77.0,83,90,13.87,NU,1603667385
42,La Serena,-29.91,-71.25,57.2,82,20,17.22,CL,1603667548
43,Martapura,-3.42,114.85,75.2,94,20,8.05,ID,1603667548
44,Tabuk,17.42,121.44,75.58,91,100,5.1,PH,1603667548
45,Iguatemi,-23.68,-54.56,81.32,58,45,5.21,BR,1603667548
46,Vaini,-21.2,-175.2,75.2,88,75,12.75,TO,1603667505
47,Mount Gambier,-37.83,140.77,55.4,58,2,21.92,AU,1603667310
48,Kenai,60.55,-151.26,37.4,93,90,24.16,US,1603667298
49,Hilo,19.73,-155.09,87.8,48,20,13.87,US,1603667432
50,Murowana Goślina,52.57,17.01,48.99,96,22,3.0,PL,1603667549
51,Shakawe,-18.37,21.85,75.04,27,28,5.53,BW,1603667549
52,Kavieng,-2.57,150.8,82.96,75,100,8.93,PG,1603667549
53,Hong Kong,22.29,114.16,73.99,78,100,1.99,HK,1603667417
54,Hamilton,39.18,-84.53,53.6,66,90,5.82,US,1603667302
55,Mīnāb,27.15,57.08,68.0,45,0,6.93,IR,1603667550
56,Andros Town,24.7,-77.77,80.6,88,0,6.93,BS,1603667550
57,Nanortalik,60.14,-45.24,35.35,87,99,15.08,GL,1603667550
58,Port Alfred,-33.59,26.89,64.13,83,94,1.61,ZA,1603667550
59,Grindavik,63.84,-22.43,41.0,86,0,10.29,IS,1603667550
60,Sitka,57.05,-135.33,41.0,80,90,21.92,US,1603667550
61,Khatanga,71.97,102.5,6.28,95,94,9.51,RU,1603667551
62,Yellowknife,62.46,-114.35,30.2,68,75,3.36,CA,1603667551
63,Nan,18.83,100.67,65.28,85,95,0.96,TH,1603667551
64,Chinhoyi,-17.37,30.2,71.04,33,1,6.06,ZW,1603667551
65,Punta Arenas,-53.15,-70.92,46.4,75,75,3.36,CL,1603667383
66,Kapaa,22.08,-159.32,82.99,78,20,9.17,US,1603667552
67,Ormara,25.21,64.64,75.88,53,0,4.38,PK,1603667552
68,San Ignacio,17.16,-89.07,86.0,66,75,11.41,BZ,1603667552
69,Lebu,-37.62,-73.65,51.31,69,0,6.78,CL,1603667552
70,Olive Branch,34.96,-89.83,55.4,87,90,8.05,US,1603667552
71,Gazipur,24.0,90.42,82.4,69,39,3.36,BD,1603667487
72,Atuona,-9.8,-139.03,78.94,75,3,20.56,PF,1603667553
73,Castro,-24.79,-50.01,63.21,91,0,5.41,BR,1603667553
74,Albany,42.6,-73.97,44.01,57,0,4.45,US,1603667553
75,Olinda,-8.01,-34.86,80.6,74,20,4.7,BR,1603667553
76,Farafangana,-22.82,47.83,69.85,87,16,6.46,MG,1603667553
77,Gewanē,10.17,40.65,77.22,28,0,2.46,ET,1603667554
78,Maniitsoq,65.42,-52.9,27.73,80,100,8.39,GL,1603667554
79,Newport,51.59,-3.0,46.0,97,1,15.88,GB,1603667554
80,Dikson,73.51,80.55,19.15,98,100,12.57,RU,1603667271
81,Griffith,41.53,-87.42,46.99,61,90,3.36,US,1603667554
82,Barrow,71.29,-156.79,26.6,68,90,8.05,US,1603667433
83,Saint George,37.1,-113.58,57.0,37,73,25.28,US,1603667554
84,Dunedin,-45.87,170.5,46.0,90,100,5.01,NZ,1603667463
85,Tromsø,69.65,18.96,37.4,74,75,47.2,NO,1603667534
86,Pevek,69.7,170.31,25.65,98,100,7.72,RU,1603667555
87,Sorong,-0.88,131.25,80.47,80,62,5.75,ID,1603667278
88,Kazachinskoye,57.7,93.28,26.8,85,100,5.99,RU,1603667555
89,Laas,46.62,10.7,54.0,93,90,8.05,IT,1603667555
90,Kangaatsiaq,68.31,-53.46,20.8,87,79,7.67,GL,1603667556
91,San Rafael,-34.62,-68.33,66.47,30,0,10.0,AR,1603667556
92,Hermanus,-34.42,19.23,60.01,89,88,1.01,ZA,1603667556
93,Bauchi,10.5,10.0,75.94,27,61,4.23,NG,1603667556
94,Severo-Kuril'sk,50.68,156.12,44.96,84,91,5.93,RU,1603667556
95,Smoky Lake,54.12,-112.47,25.83,79,83,9.84,CA,1603667556
96,Chui,-33.7,-53.46,66.87,89,100,14.9,UY,1603667556
97,Carnarvon,-24.87,113.63,69.8,88,90,17.22,AU,1603667506
98,Puerto Ayora,-0.74,-90.35,68.0,86,70,5.99,EC,1603667366
99,Port Hardy,50.7,-127.42,42.8,60,75,5.82,CA,1603667557
100,San Pedro de Macorís,18.46,-69.3,86.0,74,40,4.7,DO,1603667557
101,Cururupu,-1.83,-44.87,77.25,86,60,3.62,BR,1603667557
102,Lagoa,39.05,-27.98,63.95,62,63,1.66,PT,1603667298
103,São João da Barra,-21.64,-41.05,72.57,85,100,9.86,BR,1603667557
104,Bethel,41.37,-73.41,48.99,57,90,4.7,US,1603667557
105,São Filipe,14.9,-24.5,82.8,62,96,15.14,CV,1603667431
106,Avarua,-21.21,-159.78,78.8,65,76,14.99,CK,1603667558
107,Kutum,14.2,24.67,69.91,25,20,10.65,SD,1603667558
108,Verkhoyansk,67.54,133.38,4.78,85,0,4.43,RU,1603667558
109,Faanui,-16.48,-151.75,80.74,68,34,7.14,PF,1603667558
110,George Town,5.41,100.34,78.8,88,40,5.68,MY,1603667558
111,Longyearbyen,78.22,15.64,28.4,79,75,9.17,SJ,1603667558
112,Busselton,-33.65,115.33,64.99,56,0,5.48,AU,1603667559
113,Cape Town,-33.93,18.42,63.0,83,4,3.0,ZA,1603667435
114,Arraial do Cabo,-22.97,-42.03,71.6,83,75,10.49,BR,1603667268
115,Cidreira,-30.18,-50.21,69.13,88,14,25.75,BR,1603667559
116,Biltine,14.53,20.92,76.66,18,9,7.49,TD,1603667559
117,Baijiantan,45.63,85.18,36.09,77,0,1.52,CN,1603667559
118,Tiksi,71.69,128.87,4.55,90,100,29.75,RU,1603667270
119,Caravelas,-17.71,-39.25,72.61,97,100,8.48,BR,1603667560
120,Antofagasta,-23.65,-70.4,60.8,67,75,14.99,CL,1603667560
121,Sobolevo,54.43,31.9,42.85,93,57,4.52,RU,1603667287
122,Cuilapa,14.28,-90.3,71.6,73,75,16.11,GT,1603667560
123,Mahon,39.89,4.27,66.2,77,40,14.99,ES,1603667560
124,Sa Kaeo,13.75,102.33,68.18,84,77,0.98,TH,1603667560
125,Thompson,55.74,-97.86,26.6,49,75,9.17,CA,1603667560
126,Chumphon,10.33,98.83,71.22,99,89,0.6,TH,1603667561
127,Bay Roberts,47.6,-53.26,43.0,90,51,8.01,CA,1603667561
128,Norman Wells,65.28,-126.83,23.0,92,75,4.7,CA,1603667274
129,Mar del Plata,-38.0,-57.56,62.6,100,90,5.82,AR,1603667371
130,Uryupinsk,50.8,42.01,44.01,94,0,5.21,RU,1603667561
131,Verāval,20.9,70.37,80.85,64,0,10.42,IN,1603667562
132,Yerbogachën,61.28,108.01,23.43,95,100,4.0,RU,1603667333
133,Qaanaaq,77.48,-69.36,11.17,79,100,10.07,GL,1603667562
134,Saint-Philippe,-21.36,55.77,71.6,72,0,8.05,RE,1603667562
135,Guerrero Negro,27.98,-114.06,71.08,65,47,17.34,MX,1603667562
136,Mareeba,-17.0,145.43,86.0,61,35,5.82,AU,1603667285
137,Ukiah,39.15,-123.21,73.99,35,1,3.36,US,1603667563
138,Raudeberg,61.99,5.14,48.0,81,49,22.32,NO,1603667563
139,Fuerte Olimpo,-21.04,-57.87,87.53,49,44,4.97,PY,1603667559
140,Kaduy,59.2,37.15,32.0,98,90,2.24,RU,1603667563
141,Poum,-20.23,164.02,77.23,75,12,15.21,NC,1603667563
142,Dzaoudzi,-12.79,45.27,77.0,83,0,6.93,YT,1603667563
143,Belyy Yar,53.6,91.39,26.6,73,0,4.47,RU,1603667564
144,Mayo,38.89,-76.51,52.0,87,90,6.93,US,1603667564
145,Toledo,39.83,-4.0,55.99,72,100,23.04,ES,1603667349
146,Dongying,37.46,118.49,56.35,38,48,1.14,CN,1603667564
147,Iskateley,67.68,53.15,15.06,96,8,9.62,RU,1603667564
148,Ružomberok,49.07,19.31,53.6,93,90,1.12,SK,1603667565
149,Hualmay,-11.1,-77.61,64.06,80,53,10.04,PE,1603667565
150,Ostrovnoy,68.05,39.51,31.73,93,100,6.96,RU,1603667565
151,Dublin,37.7,-121.94,71.6,48,1,11.41,US,1603667493
152,Vikindu,-7.01,39.3,74.05,90,15,4.32,TZ,1603667565
153,Parrita,9.52,-84.32,71.6,83,75,9.17,CR,1603667565
154,Nishihara,26.18,127.76,73.4,77,40,4.7,JP,1603667566
155,Klaksvík,62.23,-6.59,44.6,81,26,9.17,FO,1603667566
156,Avera,33.19,-82.53,75.2,88,75,9.46,US,1603667566
157,Olafsvik,64.89,-23.71,41.95,81,100,23.4,IS,1603667278
158,Saint Paul Harbor,57.79,-152.41,48.2,87,90,16.11,US,1603667566
159,Shaunavon,49.65,-108.42,9.36,92,2,11.07,CA,1603667276
160,Bathsheba,13.22,-59.52,82.4,74,20,13.87,BB,1603667566
161,Santa Isabel Rio Negro,-0.41,-65.02,74.79,96,100,2.73,BR,1603667567
162,Upata,8.01,-62.4,78.01,85,100,1.01,VE,1603667567
163,Suffolk,40.87,-72.8,53.6,66,90,3.36,US,1603667567
164,Visby,57.64,18.3,55.99,82,100,14.99,SE,1603667567
165,Carutapera,-1.2,-46.02,79.84,78,100,7.14,BR,1603667567
166,Narsaq,60.92,-46.05,42.8,41,100,28.86,GL,1603667567
167,Clyde River,70.47,-68.59,12.2,85,75,5.82,CA,1603667568
168,Nālūt,30.33,10.85,63.84,59,54,9.22,LY,1603667568
169,Nogales,31.31,-110.94,80.6,22,1,14.99,MX,1603667568
170,Nemuro,43.32,145.57,49.82,73,0,19.93,JP,1603667568
171,Oyama,36.3,139.8,60.01,87,75,2.24,JP,1603667568
172,Provideniya,64.38,-173.3,35.6,74,90,4.47,RU,1603667568
173,Tuatapere,-46.13,167.68,53.01,63,92,5.99,NZ,1603667514
174,Tuktoyaktuk,69.45,-133.04,21.2,85,90,19.46,CA,1603667569
175,Lapeer,43.05,-83.32,46.4,49,90,3.36,US,1603667569
176,Hithadhoo,-0.6,73.08,83.39,68,55,6.31,MV,1603667436
177,South Venice,27.05,-82.42,82.4,83,75,4.7,US,1603667569
178,Bojnourd,37.47,57.33,42.8,45,0,4.7,IR,1603667569
179,Connersville,39.64,-85.14,52.0,62,100,7.47,US,1603667569
180,Mapiripán,2.89,-72.13,78.39,89,95,4.03,CO,1603667569
181,Zhangaözen,43.3,52.8,53.92,99,49,5.48,KZ,1603667570
182,Gamovo,57.87,56.11,32.0,98,75,4.47,RU,1603667570
183,Honningsvåg,70.98,25.97,33.8,69,40,17.22,NO,1603667278
184,Djibouti,11.5,42.5,82.4,69,1,17.98,DJ,1603667570
185,Samarai,-10.62,150.67,82.45,78,41,8.08,PG,1603667570
186,Codrington,-38.27,141.97,54.07,67,1,18.28,AU,1603667570
187,Vanimo,-2.67,141.3,80.64,82,100,2.3,PG,1603667570
188,Pochutla,15.74,-96.47,86.0,70,40,5.12,MX,1603667570
189,Honiara,-9.43,159.95,84.2,79,75,3.36,SB,1603667571
190,Lermontovka,47.15,134.34,38.41,81,0,2.17,RU,1603667571
191,Lüderitz,-26.65,15.16,65.28,54,75,22.7,NA,1603667571
192,Boguchany,58.38,97.45,23.68,92,61,3.76,RU,1603667571
193,Garden City,42.33,-83.33,48.2,64,90,9.17,US,1603667469
194,Peniche,39.36,-9.38,59.0,80,83,5.01,PT,1603667571
195,Atambua,-9.11,124.89,79.74,75,98,2.55,ID,1603667572
196,Reconquista,-29.15,-59.65,69.48,93,56,14.63,AR,1603667572
197,Lompoc,34.64,-120.46,66.2,63,90,10.29,US,1603667358
198,Emba,48.83,58.14,55.72,73,100,20.0,KZ,1603667572
199,Henderson,36.04,-114.98,78.8,20,1,21.92,US,1603667316
200,Muros,42.78,-9.06,48.0,93,99,1.99,ES,1603667572
201,Airai,-8.93,125.41,67.77,84,98,1.57,TL,1603667573
202,Boralday,43.36,76.86,32.0,59,14,2.77,KZ,1603667573
203,Tāybād,34.74,60.78,42.89,59,0,1.01,IR,1603667573
204,Beyneu,45.32,55.2,56.34,88,73,13.69,KZ,1603667573
205,Saskylakh,71.92,114.08,7.61,93,100,10.33,RU,1603667573
206,Kantunilkín,21.09,-87.45,86.0,70,75,13.87,MX,1603667573
207,Hastings,50.86,0.57,50.0,88,68,1.99,GB,1603667560
208,Vila Franca do Campo,37.72,-25.43,59.0,82,20,5.82,PT,1603667573
209,Torbay,47.67,-52.73,41.0,80,75,21.92,CA,1603667574
210,Bredasdorp,-34.53,20.04,60.8,93,100,9.17,ZA,1603667507
211,Moree,-29.47,149.85,64.4,68,40,5.97,AU,1603667379
212,Thunder Bay,48.4,-89.32,32.0,90,90,3.36,CA,1603667350
213,Nome,64.5,-165.41,39.2,80,90,6.93,US,1603667288
214,Nhulunbuy,-12.23,136.77,82.4,78,75,5.82,AU,1603667574
215,Haines Junction,60.75,-137.51,29.84,90,100,3.11,CA,1603667574
216,Saldanha,-33.01,17.94,57.2,82,19,6.93,ZA,1603667575
217,Yar-Sale,66.83,70.83,11.43,96,69,10.16,RU,1603667575
218,Ahipara,-35.17,173.17,68.9,64,3,6.2,NZ,1603667292
219,Bengkulu,-3.8,102.27,74.93,87,100,4.99,ID,1603667575
220,San Andrés,12.58,-81.7,84.2,83,75,4.7,CO,1603667416
221,Silver City,32.77,-108.28,71.6,18,1,21.92,US,1603667575
222,Heyang,26.1,107.47,60.39,91,99,3.29,CN,1603667575
223,Jamestown,42.1,-79.24,45.0,68,90,12.75,US,1603667576
224,Chokurdakh,70.63,147.92,5.65,92,3,9.86,RU,1603667576
225,Goderich,43.75,-81.72,44.01,64,93,13.44,CA,1603667502
226,Chapais,49.78,-74.85,26.6,79,90,3.36,CA,1603667576
227,Ostrov,57.34,28.35,42.8,93,20,2.24,RU,1603667576
228,Geraldton,-28.77,114.6,60.8,87,0,4.7,AU,1603667576
229,Isangel,-19.55,169.27,80.6,74,75,5.82,VU,1603667576
230,Jalu,29.03,21.55,63.88,79,0,7.05,LY,1603667281
231,Chara,56.91,118.26,28.35,89,100,0.54,RU,1603667577
232,Benguela,-12.58,13.41,74.5,80,86,5.57,AO,1603667577
233,Esperance,-33.87,121.9,55.4,66,0,19.46,AU,1603667577
234,Bulungu,-4.55,18.6,71.65,97,99,1.88,CD,1603667577
235,Kyenjojo,0.63,30.62,62.42,98,100,1.66,UG,1603667577
236,The Valley,18.22,-63.06,82.99,74,20,12.75,AI,1603667278
237,Labuhan,-6.88,112.21,79.38,83,97,8.66,ID,1603667578
238,Vol'sk,52.03,47.38,41.09,80,9,9.86,RU,1603667578
239,Ubari,26.59,12.78,67.24,35,0,6.78,LY,1603667578
240,Darhan,49.49,105.92,23.5,89,88,2.04,MN,1603667578
241,Nador,35.17,-2.93,64.4,72,0,5.82,MA,1603667578
242,Béziers,43.35,3.22,57.2,93,90,2.24,FR,1603667578
243,Ancud,-41.87,-73.82,52.0,76,90,10.29,CL,1603667287
244,Río Gallegos,-51.62,-69.22,55.4,58,40,9.17,AR,1603667579
245,Myitkyina,25.38,97.4,68.81,94,42,1.72,MM,1603667285
246,Alyangula,-13.85,136.42,73.4,100,90,1.12,AU,1603667579
247,San Patricio,28.02,-97.52,82.4,69,75,20.8,US,1603667579
248,Portland,45.52,-122.68,48.0,26,20,18.34,US,1603667331
249,Yulara,-25.24,130.99,62.6,30,28,19.46,AU,1603667419
250,Toora-Khem,52.47,96.11,17.64,82,81,3.09,RU,1603667580
251,Lorengau,-2.02,147.27,84.4,73,100,5.23,PG,1603667580
252,Morant Bay,17.88,-76.41,80.6,88,75,20.8,JM,1603667580
253,Pangnirtung,66.15,-65.71,12.63,84,24,4.85,CA,1603667580
254,Patacamaya,-17.23,-67.92,51.28,59,94,20.36,BO,1603667580
255,Kahului,20.89,-156.47,93.2,49,40,14.99,US,1603667581
256,Los Llanos de Aridane,28.66,-17.92,69.8,64,62,10.29,ES,1603667284
257,Buraidah,26.33,43.98,64.4,25,0,6.87,SA,1603667581
258,Ribeira Grande,38.52,-28.7,64.92,70,72,3.53,PT,1603667581
259,Fairbanks,64.84,-147.72,34.0,79,1,3.44,US,1603667582
260,Deogarh,21.53,84.73,68.38,60,63,2.19,IN,1603667582
261,Manokwari,-0.87,134.08,81.66,72,99,1.77,ID,1603667582
262,Walvis Bay,-22.96,14.51,57.99,87,0,8.05,NA,1603667582
263,Cayenne,4.93,-52.33,82.4,78,0,3.36,GF,1603667335
264,Ola,59.58,151.28,36.93,77,100,12.53,RU,1603667582
265,Chebarkul',54.97,60.36,39.63,97,100,6.78,RU,1603667582
266,Kiama,-34.68,150.87,59.0,82,75,10.29,AU,1603667582
267,Karratha,-20.74,116.85,68.27,76,99,13.8,AU,1603667583
268,Hofn,64.25,-15.21,44.1,73,100,13.29,IS,1603667583
269,Plouzané,48.38,-4.62,51.8,87,42,8.05,FR,1603667583
270,Aklavik,68.22,-135.01,23.0,85,90,11.41,CA,1603667583
271,Oswego,43.45,-76.15,44.6,52,90,3.36,US,1603667439
272,Palmer,42.16,-72.33,48.2,74,75,4.7,US,1603667583
273,Lima,-12.04,-77.03,64.4,77,20,11.41,PE,1603667462
274,Asău,46.43,26.4,53.01,98,100,1.83,RO,1603667584
275,Santa Cruz del Sur,20.71,-78.0,80.24,84,100,18.99,CU,1603667584
276,Shancheng,34.8,116.08,60.01,64,95,4.9,CN,1603667584
277,Polunochnoye,60.87,60.42,22.89,98,100,3.8,RU,1603667584
278,Puerto Madryn,-42.77,-65.04,64.56,27,25,17.56,AR,1603667584
279,Kloulklubed,7.04,134.26,78.8,88,75,4.88,PW,1603667585
280,Iqaluit,63.75,-68.51,12.2,85,75,5.82,CA,1603667585
281,Flinders,-34.58,150.86,59.0,82,75,10.29,AU,1603667295
282,Katsuura,35.13,140.3,61.0,67,75,5.82,JP,1603667585
283,Ayr,55.46,-4.63,50.0,76,40,16.11,GB,1603667585
284,Tura,25.52,90.22,68.58,95,1,1.97,IN,1603667585
285,Mayachnyy,52.68,55.69,44.42,88,99,18.1,RU,1603667586
286,Manta,-0.95,-80.73,77.0,73,20,6.93,EC,1603667586
287,Atlantic City,39.36,-74.42,53.01,93,90,10.29,US,1603667505
288,Seymchan,62.88,152.43,23.68,96,100,6.8,RU,1603667289
289,Lavrentiya,65.58,-171.0,33.75,88,96,8.14,RU,1603667586
290,Olden,61.84,6.81,37.99,77,36,1.01,NO,1603667586
291,Port Lincoln,-34.73,135.87,54.46,61,47,17.69,AU,1603667586
292,Harper,4.38,-7.72,77.95,87,78,6.78,LR,1603667587
293,Otradnoye,59.78,30.82,43.0,93,90,6.71,RU,1603667587
294,Foam Lake,51.65,-103.53,15.96,94,15,7.45,CA,1603667587
295,Carlsbad,33.16,-117.35,70.0,64,90,8.05,US,1603667580
296,Irtyshskiy,58.33,68.13,33.51,97,98,3.71,RU,1603667587
297,Saint-Augustin,51.23,-58.65,32.29,86,2,12.37,CA,1603667587
298,Marsh Harbour,26.54,-77.06,77.14,77,100,8.05,BS,1603667587
299,Korla,41.76,86.15,44.01,67,91,1.01,CN,1603667588
300,Rio Grande,-32.03,-52.1,72.0,87,60,5.99,BR,1603667588
301,Kerema,-7.96,145.78,82.54,73,100,1.1,PG,1603667588
302,Souillac,-20.52,57.52,71.6,88,75,18.34,MU,1603667588
303,San Francisco,37.77,-122.42,73.4,49,20,3.36,US,1603667400
304,Pacific Grove,36.62,-121.92,64.0,72,40,8.05,US,1603667588
305,Fayaoué,-20.65,166.53,75.24,76,0,14.32,NC,1603667588
306,Makakilo City,21.35,-158.09,84.2,70,1,11.41,US,1603667589
307,Bilibino,68.05,166.44,18.88,94,99,2.19,RU,1603667589
308,Ferzikovo,54.52,36.76,48.2,87,89,4.47,RU,1603667589
309,Bealanana,-14.55,48.73,59.4,90,80,3.51,MG,1603667589
310,Ballina,-28.87,153.57,69.8,88,90,8.05,AU,1603667589
311,Khiv,41.75,47.93,55.53,39,44,5.37,RU,1603667589
312,Kushima,31.46,131.23,51.8,93,20,9.17,JP,1603667589
313,Yangi Marg`ilon,40.43,71.72,46.4,49,0,6.93,UZ,1603667296
314,Camacha,33.08,-16.33,68.0,77,40,9.17,PT,1603667590
315,Tornio,65.85,24.15,33.8,100,90,13.87,FI,1603667590
316,Rawson,-43.3,-65.1,60.51,33,28,4.25,AR,1603667471
317,Sisimiut,66.94,-53.67,20.52,86,96,9.6,GL,1603667590
318,Funtua,11.52,7.31,72.43,32,64,3.74,NG,1603667590
319,Bluefields,12.01,-83.76,78.8,94,40,4.7,NI,1603667590
320,Žagarė,56.36,23.25,52.0,93,90,13.87,LT,1603667591
321,Mahébourg,-20.41,57.7,71.6,88,75,18.34,MU,1603667591
322,Kamenka,51.32,42.77,44.01,94,4,5.86,RU,1603667591
323,Alekseyevsk,57.84,108.35,26.38,95,100,6.13,RU,1603667591
324,Ucluelet,48.93,-125.55,46.99,65,75,6.93,CA,1603667558
325,Mogadishu,2.04,45.34,79.7,82,95,10.27,SO,1603667591
326,Labuan,5.28,115.24,77.0,94,40,13.09,MY,1603667591
327,Bāfq,31.61,55.41,51.94,40,0,3.69,IR,1603667592
328,Vao,-22.67,167.48,72.5,82,6,13.85,NC,1603667592
329,Harrismith,-28.27,29.13,61.86,58,80,3.53,ZA,1603667592
330,Pontianak,-0.03,109.33,76.48,89,90,2.91,ID,1603667592
331,Fort Beaufort,-32.77,26.63,58.95,81,85,3.29,ZA,1603667592
332,Abu Kamal,34.45,40.92,68.38,24,100,4.94,SY,1603667593
333,Huarmey,-10.07,-78.15,65.08,79,39,8.7,PE,1603667593
334,Sioux Lookout,50.1,-91.92,24.8,68,90,2.24,CA,1603667369
335,Ust-Maya,60.42,134.53,4.71,93,0,1.48,RU,1603667593
336,Camopi,3.17,-52.32,81.03,71,43,4.72,GF,1603667593
337,Vinh Yen,21.31,105.6,73.4,69,75,3.36,VN,1603667593
338,Sovetskiy,61.36,63.58,25.07,98,97,3.67,RU,1603667593
339,Kaeo,-35.1,173.78,71.01,71,20,8.01,NZ,1603667594
340,Quelimane,-17.88,36.89,77.0,88,0,8.05,MZ,1603667425
341,Nerchinskiy Zavod,51.31,119.61,29.57,93,100,0.87,RU,1603667594
342,Kabinda,-6.13,24.48,68.72,96,100,5.48,CD,1603667594
343,Saddiqabad,28.31,70.13,67.39,24,0,9.86,PK,1603667594
344,Tshikapa,-6.42,20.8,71.76,94,98,0.96,CD,1603667594
345,San Quintín,30.48,-115.95,68.32,67,66,14.27,MX,1603667595
346,Lebyazh'ye,55.27,66.49,41.2,90,100,3.78,RU,1603667595
347,Baruun-Urt,46.68,113.28,33.06,88,0,12.5,MN,1603667595
348,Tarrafal,15.28,-23.77,80.6,69,0,19.46,CV,1603667595
349,Barra de Tecoanapa,16.52,-98.75,84.2,77,89,9.1,MX,1603667595
350,Gornopravdinsk,60.05,69.9,32.61,97,99,5.01,RU,1603667596
351,Bagdarin,54.43,113.6,27.46,96,99,3.6,RU,1603667596
352,Inuvik,68.35,-133.72,23.0,85,90,11.41,CA,1603667596
353,Laredo,27.51,-99.51,91.4,52,1,14.99,US,1603667596
354,Bandar-e Lengeh,26.56,54.88,75.22,52,0,5.03,IR,1603667596
355,Lodja,-3.48,23.43,69.69,97,100,0.47,CD,1603667596
356,Fukuechō,32.69,128.84,65.95,58,0,9.71,JP,1603667372
357,Praia da Vitória,38.73,-27.07,63.0,82,75,2.84,PT,1603667597
358,Sabanalarga,10.63,-74.92,82.4,83,40,4.7,CO,1603667597
359,Maposeni,-10.58,35.4,68.29,75,53,4.21,TZ,1603667597
360,Callaway,30.15,-85.57,80.6,65,1,5.82,US,1603667597
361,Yazd,31.9,54.37,57.2,24,0,4.7,IR,1603667597
362,Bethanien,-26.5,17.16,68.49,25,22,4.81,NA,1603667597
363,Kyra,49.58,111.98,26.92,84,100,18.77,RU,1603667598
364,Kumul,42.8,93.45,38.05,67,23,3.15,CN,1603667598
365,Agboville,5.93,-4.21,74.46,97,95,3.18,CI,1603667598
366,Tandil,-37.32,-59.13,63.0,99,100,3.0,AR,1603667376
367,Huilong,31.81,121.66,64.0,91,54,5.19,CN,1603667598
368,Oddur,4.12,43.89,73.71,83,17,11.36,SO,1603667598
369,Mayumba,-3.43,10.66,77.13,87,100,8.3,GA,1603667598
370,Khotyn,48.48,26.5,54.0,91,100,1.99,UA,1603667599
371,Belaya Gora,68.53,146.42,9.99,93,10,6.73,RU,1603667599
372,Coyhaique,-45.58,-72.07,48.2,57,75,8.05,CL,1603667565
373,Lobva,59.19,60.52,24.46,98,100,3.74,RU,1603667599
374,Coquimbo,-29.95,-71.34,57.2,82,20,17.22,CL,1603667599
375,Nova Zagora,42.48,26.02,60.8,72,90,4.7,BG,1603667599
376,Touros,-5.2,-35.46,78.8,83,40,6.93,BR,1603667324
377,Hohhot,40.81,111.65,46.4,36,0,11.18,CN,1603667357
378,Cervo,43.67,-7.41,44.01,100,98,7.0,ES,1603667600
379,Srikakulam,18.3,83.9,74.01,83,6,5.73,IN,1603667600
380,Coahuayana Viejo,18.73,-103.68,84.2,74,40,13.87,MX,1603667600
381,Salinópolis,-0.61,-47.36,81.1,79,58,11.59,BR,1603667600
382,Arkhara,49.42,130.08,32.54,95,0,5.73,RU,1603667601
383,Tambacounda,13.75,-13.76,84.2,79,0,4.7,SN,1603667601
384,Sirajganj,24.45,89.72,78.76,81,31,5.01,BD,1603667601
385,Alta Floresta,-9.88,-56.09,78.49,69,94,0.25,BR,1603667366
386,Athabasca,54.72,-113.29,27.32,82,65,9.4,CA,1603667578
387,Conde,-7.26,-34.91,78.8,83,0,6.93,BR,1603667601
388,Cabo San Lucas,22.89,-109.91,89.01,55,20,12.75,MX,1603667601
389,Beringovskiy,63.05,179.32,30.85,92,45,2.26,RU,1603667602
390,São Félix do Xingu,-6.64,-51.99,80.56,63,79,1.3,BR,1603667602
391,Corigliano Calabro,39.59,16.52,57.99,87,8,1.01,IT,1603667376
392,Safaga,26.73,33.94,77.0,47,0,11.41,EG,1603667602
393,Sechura,-5.56,-80.82,70.11,67,70,16.11,PE,1603667602
394,Roebourne,-20.78,117.13,70.5,68,100,11.97,AU,1603667602
395,Fortuna,40.6,-124.16,63.0,58,1,11.41,US,1603667602
396,Malkara,40.89,26.9,72.0,32,37,2.77,TR,1603667603
397,Rocha,-34.48,-54.33,67.82,89,100,8.34,UY,1603667603
398,Ispravnaya,44.07,41.61,50.13,48,54,5.14,RU,1603667603
399,Paamiut,61.99,-49.67,36.48,83,98,10.47,GL,1603667603
400,Denpasar,-8.65,115.22,78.8,94,20,1.12,ID,1603667603
401,Krasnogvardeyskiy,57.38,62.32,31.24,97,100,1.79,RU,1603667603
402,Bor,56.36,44.07,37.4,93,90,4.45,RU,1603667604
403,Ankara,39.92,32.85,64.0,57,0,6.15,TR,1603667604
404,Tsogni,-2.79,10.1,75.6,90,100,7.47,GA,1603667604
405,Tyup,42.73,78.36,35.82,73,0,1.36,KG,1603667604
406,Caucayá,-0.19,-74.78,82.8,65,100,1.28,CO,1603667604
407,Port Blair,11.67,92.75,77.76,85,76,5.17,IN,1603667604
408,Tocopilla,-22.09,-70.2,65.3,60,99,10.25,CL,1603667513
409,Marawi,8.0,124.29,75.0,91,100,1.99,PH,1603667605
410,Elban,50.1,136.51,38.14,79,10,2.84,RU,1603667605
411,San Ramon,37.78,-121.98,71.01,48,1,11.41,US,1603667589
412,Bila Krynytsya,50.64,29.47,48.2,100,98,4.47,UA,1603667605
413,Qui Nhon,13.77,109.23,75.27,89,100,4.5,VN,1603667454
414,Koungou,-12.73,45.2,77.0,83,0,6.93,YT,1603667605
415,Eyl,7.98,49.82,76.78,68,29,9.06,SO,1603667605
416,College,64.86,-147.8,34.0,79,75,3.49,US,1603667310
417,Ritchie,-29.04,24.6,75.2,38,89,8.05,ZA,1603667606
418,Kurchum,48.57,83.65,36.14,71,93,9.69,KZ,1603667606
419,Kizilskoye,52.73,58.89,51.39,87,100,14.07,RU,1603667606
420,Komagane,35.73,137.94,49.77,49,64,3.53,JP,1603667606
421,Margate,51.38,1.39,51.01,78,86,3.0,GB,1603667606
422,Emerald,-23.53,148.17,75.0,68,40,11.41,AU,1603667606
423,Banda Aceh,5.56,95.32,80.1,72,100,10.98,ID,1603667607
424,Lata,40.16,-8.33,55.0,88,69,7.0,PT,1603667607
425,Mezen',65.85,44.24,15.66,97,5,4.18,RU,1603667607
426,Pisco,-13.7,-76.22,68.0,68,0,19.46,PE,1603667607
427,Pundaguitan,6.37,126.17,82.74,73,100,5.01,PH,1603667607
428,Brae,60.4,-1.35,50.0,81,75,19.46,GB,1603667607
429,Srednekolymsk,67.45,153.68,12.54,91,38,0.69,RU,1603667607
430,Manzhouli,49.6,117.43,28.06,94,59,2.06,CN,1603667608
431,Husavik,66.04,-17.34,41.0,80,90,5.82,IS,1603667608
432,Ţahţā,26.77,31.5,69.8,49,0,4.7,EG,1603667608
433,Wyndham,37.7,-77.61,48.99,93,90,6.93,US,1603667608
434,Puerto Colombia,10.99,-74.95,82.4,83,40,4.7,CO,1603667608
435,Hobyo,5.35,48.53,79.18,83,1,7.65,SO,1603667608
436,Kununurra,-15.77,128.73,84.2,79,66,5.82,AU,1603667608
437,Punta de Piedra,7.62,-71.49,76.19,90,30,0.51,VE,1603667609
438,Atasū,48.68,71.64,43.68,58,100,15.35,KZ,1603667609
439,Havelock,34.88,-76.9,70.0,88,90,8.05,US,1603667609
440,Jatiroto,-7.88,111.12,75.22,87,98,3.53,ID,1603667493
441,Dondo,-19.61,34.74,75.2,88,20,9.17,MZ,1603667609
442,Xinzhou,38.41,112.73,50.99,61,7,0.29,CN,1603667609
443,Namatanai,-3.67,152.43,82.44,75,98,4.03,PG,1603667609
444,Alice Springs,-23.7,133.88,62.6,29,6,13.87,AU,1603667610
445,Repatriación,-25.53,-55.95,84.09,46,2,6.49,PY,1603667610
446,Lethem,3.38,-59.8,86.61,52,70,8.48,GY,1603667610
447,Cusco,-13.52,-71.98,57.2,50,90,5.82,PE,1603667591
448,Acapulco de Juárez,16.86,-99.89,86.0,79,40,8.05,MX,1603667522
449,Itainópolis,-7.45,-41.48,84.58,49,58,2.53,BR,1603667610
450,Dalby,-27.18,151.27,71.01,62,1,7.0,AU,1603667610
451,Muroto-misakicho,33.28,134.15,53.6,71,40,9.17,JP,1603667611
452,Sahuaripa,29.05,-109.23,88.79,22,0,16.26,MX,1603667611
453,Dingle,11.0,122.67,75.81,90,100,15.82,PH,1603667611
454,Sandnessjøen,66.02,12.63,39.2,86,75,6.93,NO,1603667611
455,Port Hedland,-20.32,118.57,75.2,78,81,9.17,AU,1603667611
456,Sakakah,29.97,40.21,68.0,13,20,8.05,SA,1603667611
457,Morón,-34.65,-58.62,69.01,99,89,14.43,AR,1603667612
458,Imbituba,-28.24,-48.67,73.4,88,75,9.17,BR,1603667612
459,Belmonte,-15.86,-38.88,77.0,83,90,8.05,BR,1603667612
460,Balkanabat,39.51,54.37,59.36,34,0,2.64,TM,1603667612
461,San Juan,-31.54,-68.54,65.5,40,12,10.87,AR,1603667471
462,Etchoropo,26.77,-109.67,95.0,31,1,10.0,MX,1603667612
463,Igarapava,-20.04,-47.75,71.08,90,15,1.77,BR,1603667612
464,Meulaboh,4.14,96.13,75.45,84,100,5.59,ID,1603667612
465,Leh,34.17,77.58,26.6,82,92,2.57,IN,1603667613
466,Hope,33.67,-93.59,57.0,82,90,5.82,US,1603667613
467,San Luis,-33.3,-66.34,56.32,55,6,12.37,AR,1603667613
468,Angoram,-4.06,144.07,78.19,90,99,4.61,PG,1603667613
469,Richards Bay,-28.78,32.04,70.36,81,96,11.86,ZA,1603667613
470,Banska Bystrica,48.5,19.5,53.6,93,90,1.12,SK,1603667613
471,Celestún,20.87,-90.4,81.12,78,25,13.6,MX,1603667613
472,Tatsunochō-tominaga,34.87,134.55,57.2,81,20,2.24,JP,1603667613
473,Nantucket,41.28,-70.1,51.8,62,1,10.29,US,1603667552
474,Ugoofaaru,5.67,73.0,81.91,73,97,7.81,MV,1603667614
475,Upington,-28.45,21.26,78.8,14,0,3.36,ZA,1603667614
476,Khandagayty,50.73,92.05,21.67,80,98,2.04,RU,1603667614
477,Burley,42.54,-113.79,33.8,26,40,12.75,US,1603667614
478,Vila Velha,-20.33,-40.29,71.6,94,75,6.93,BR,1603667614
479,Lokosovo,61.13,74.82,24.28,98,98,9.6,RU,1603667614
480,Sambava,-14.27,50.17,70.23,83,0,9.24,MG,1603667615
481,Srandakan,-7.94,110.25,78.49,87,100,7.38,ID,1603667615
482,Berbera,10.44,45.01,82.11,50,0,6.38,SO,1603667615
483,Saint-Pierre,-21.34,55.48,68.0,72,0,8.05,RE,1603667615
484,Peruíbe,-24.32,-47.0,70.57,92,35,4.61,BR,1603667615
485,Al Bardīyah,31.76,25.09,69.33,76,0,9.75,LY,1603667615
486,Barsovo,61.17,73.17,26.6,92,90,11.18,RU,1603667616
487,Tessalit,20.2,1.01,78.31,16,0,9.04,ML,1603667616
488,Taltal,-25.4,-70.48,61.74,59,22,6.22,CL,1603667616
489,Fuxin,42.02,121.66,46.36,55,41,1.01,CN,1603667616
490,Diamantino,-14.41,-56.45,79.5,67,21,4.36,BR,1603667616
491,Chicama,-7.84,-79.15,66.43,75,60,7.27,PE,1603667616
492,Kungurtug,50.6,97.52,14.92,79,20,2.37,RU,1603667616
493,Birjand,32.87,59.22,41.0,21,0,6.93,IR,1603667617
494,Maragogi,-9.01,-35.22,76.89,82,35,11.72,BR,1603667617
495,Jiancheng,30.39,104.55,68.0,82,100,1.05,CN,1603667617
496,Preobrazheniye,42.9,133.91,44.37,62,0,6.15,RU,1603667617
497,Vondrozo,-22.82,47.28,59.13,100,76,1.07,MG,1603667617
498,Itarema,-2.92,-39.92,80.01,78,39,16.24,BR,1603667618
499,Byron Bay,-28.65,153.62,69.01,88,90,8.05,AU,1603667618
500,Qazvin,36.28,50.0,53.6,50,0,4.7,IR,1603667618
501,Ulety,51.36,112.48,27.21,89,100,15.9,RU,1603667618
502,Zhigansk,66.77,123.37,-2.97,89,2,5.32,RU,1603667618
503,Lena,43.1,-5.73,54.0,71,40,8.05,ES,1603667618
504,Owatonna,44.08,-93.23,26.6,86,100,13.87,US,1603667590
505,North Platte,41.12,-100.77,21.2,79,90,13.87,US,1603667619
506,San Jose,37.34,-121.89,71.01,46,40,6.93,US,1603667375
507,Ol'ga,43.74,135.29,40.26,72,0,6.98,RU,1603667619
508,Salalah,17.02,54.09,75.2,60,0,5.82,OM,1603667619
509,Hvizd,48.69,24.55,50.86,90,100,2.68,UA,1603667619
510,Puerto Nariño,-3.77,-70.38,78.8,94,75,3.36,CO,1603667619
511,Kalachinsk,55.05,74.58,39.0,98,100,6.42,RU,1603667619
512,Oodweyne,9.41,45.06,71.15,40,0,0.89,SO,1603667620
513,Luganville,-15.53,167.17,82.4,78,75,3.36,VU,1603667620
514,Manchester,53.48,-2.24,45.0,87,1,6.93,GB,1603667541
515,Manicoré,-5.81,-61.3,75.2,91,33,2.66,BR,1603667620
516,Berlevåg,70.86,29.09,33.8,88,75,16.11,NO,1603667620
517,Kanniyākumāri,8.08,77.57,78.84,79,52,14.05,IN,1603667620
518,Dicabisagan,17.08,122.42,80.98,84,100,15.03,PH,1603667621
519,Cap Malheureux,-19.98,57.61,73.0,78,64,8.01,MU,1603667621
520,Skibbereen,51.55,-9.27,44.6,87,20,9.17,IE,1603667621
521,Nyrob,60.73,56.72,24.35,96,100,2.77,RU,1603667621
522,Ixtapa,20.7,-105.2,88.0,79,40,11.41,MX,1603667621
523,Tezu,27.92,96.17,70.59,69,4,2.64,IN,1603667621
524,Grand Gaube,-20.01,57.66,73.0,78,69,8.01,MU,1603667621
525,Juneau,58.3,-134.42,34.0,86,90,8.05,US,1603667622
526,Carauari,-4.88,-66.9,75.24,94,94,1.14,BR,1603667622
527,Tarauacá,-8.16,-70.77,85.44,56,59,2.77,BR,1603667622
528,Adelaide,-34.93,138.6,59.0,58,20,10.29,AU,1603667505
529,Port-Cartier,50.03,-66.87,34.0,50,20,5.82,CA,1603667622
530,Harnai,30.1,67.94,58.42,27,0,3.04,PK,1603667622
531,Nouadhibou,20.93,-17.03,77.0,57,0,23.04,MR,1603667622
532,Killybegs,54.63,-8.45,48.99,93,99,5.99,IE,1603667623
533,Barabinsk,55.36,78.36,37.71,96,99,9.28,RU,1603667623
534,Necochea,-38.55,-58.74,55.99,91,100,10.0,AR,1603667623
535,Stromness,58.97,-3.3,48.2,81,100,19.46,GB,1603667623
536,Waiouru,-39.48,175.67,64.74,53,70,6.58,NZ,1603667623
537,Yumen,40.28,97.2,29.57,85,78,9.93,CN,1603667623
538,Grand Baie,-20.02,57.58,73.0,78,60,8.01,MU,1603667624
539,Kiryat Gat,31.61,34.76,73.99,83,0,2.24,IL,1603667624
540,Koungheul,13.98,-14.8,83.86,33,0,3.56,SN,1603667624
541,Leshukonskoye,64.9,45.76,20.66,98,93,4.74,RU,1603667624
542,Bela,25.93,81.98,70.97,38,0,0.34,IN,1603667624
543,Anshun,26.25,105.93,59.25,92,100,3.02,CN,1603667624
544,Taoudenni,22.68,-3.98,86.7,13,23,8.37,ML,1603667625
545,Porto Santo,33.07,-16.34,68.0,77,40,9.17,PT,1603667625
546,Zolotukhino,52.08,36.38,44.08,92,17,2.82,RU,1603667625
547,Guasdualito,7.24,-70.73,77.47,85,35,2.89,VE,1603667625
548,Djebeniana,35.03,10.91,66.2,77,20,7.18,TN,1603667625
549,Kalety,50.56,18.89,48.2,100,90,8.05,PL,1603667625
550,Aktau,43.65,51.2,55.4,93,90,2.24,KZ,1603667626
551,Palembang,-2.92,104.75,73.4,100,20,3.89,ID,1603667626
552,Gari,59.43,62.35,25.16,98,100,2.75,RU,1603667626
553,Toamasina,-18.17,49.38,69.8,94,40,2.95,MG,1603667626
554,Angoche,-16.23,39.91,75.97,81,79,0.96,MZ,1603667626
